{
"type": "FeatureCollection",
"name": "Libraries",
"crs": { "type": "name", "properties": { "name": "urn:ogc:def:crs:OGC:1.3:CRS84" } },
"features": [
{ "type": "Feature", "properties": { "FID": 1, "NAME": "Sherwood Public Library", "ADDRESS": "22560 SW Pine St", "CITY": "Sherwood", "STATE": "OR", "ZIPCODE": "97140" }, "geometry": { "type": "Point", "coordinates": [ -122.840369688273995, 45.356664074229997 ] } },
{ "type": "Feature", "properties": { "FID": 2, "NAME": "Forest Grove City Library", "ADDRESS": "2114 Pacific Ave", "CITY": "Forest Grove", "STATE": "OR", "ZIPCODE": "97116" }, "geometry": { "type": "Point", "coordinates": [ -123.109979996052999, 45.519499646012598 ] } },
{ "type": "Feature", "properties": { "FID": 3, "NAME": "Hillsboro Shute Park Branch", "ADDRESS": "775 SE 10th Ave", "CITY": "Hillsboro", "STATE": "OR", "ZIPCODE": "97123" }, "geometry": { "type": "Point", "coordinates": [ -122.975054486109997, 45.514310669667601 ] } },
{ "type": "Feature", "properties": { "FID": 4, "NAME": "West Slope Community Library", "ADDRESS": "3678 SW 78th Ave", "CITY": "Portland", "STATE": "OR", "ZIPCODE": "97225" }, "geometry": { "type": "Point", "coordinates": [ -122.757258811753005, 45.4932419741911 ] } },
{ "type": "Feature", "properties": { "FID": 5, "NAME": "St. Johns Library", "ADDRESS": "7510 N Charleston Ave", "CITY": "Portland", "STATE": "OR", "ZIPCODE": "97203" }, "geometry": { "type": "Point", "coordinates": [ -122.751160020452005, 45.590077964846699 ] } },
{ "type": "Feature", "properties": { "FID": 6, "NAME": "North Portland Library", "ADDRESS": "512 N Killingsworth St", "CITY": "Portland", "STATE": "OR", "ZIPCODE": "97217" }, "geometry": { "type": "Point", "coordinates": [ -122.671464896708997, 45.562520633421798 ] } },
{ "type": "Feature", "properties": { "FID": 7, "NAME": "Sellwood-Moreland Library", "ADDRESS": "7860 SE 13th Ave", "CITY": "Portland", "STATE": "OR", "ZIPCODE": "97202" }, "geometry": { "type": "Point", "coordinates": [ -122.652814631477995, 45.467695313516003 ] } },
{ "type": "Feature", "properties": { "FID": 8, "NAME": "Gregory Heights Library", "ADDRESS": "7921 NE Sandy Blvd", "CITY": "Portland", "STATE": "OR", "ZIPCODE": "97213" }, "geometry": { "type": "Point", "coordinates": [ -122.581411675558002, 45.551568287779602 ] } },
{ "type": "Feature", "properties": { "FID": 9, "NAME": "Rockwood Library", "ADDRESS": "17917 SE Stark St", "CITY": "Portland", "STATE": "OR", "ZIPCODE": "97233" }, "geometry": { "type": "Point", "coordinates": [ -122.479016900681003, 45.519488756827997 ] } },
{ "type": "Feature", "properties": { "FID": 10, "NAME": "Midland Library", "ADDRESS": "805 SE 122nd Ave", "CITY": "Portland", "STATE": "OR", "ZIPCODE": "97233" }, "geometry": { "type": "Point", "coordinates": [ -122.538225314990001, 45.516765041332903 ] } },
{ "type": "Feature", "properties": { "FID": 11, "NAME": "Hollywood Library", "ADDRESS": "4040 NE Tillamook St", "CITY": "Portland", "STATE": "OR", "ZIPCODE": "97212" }, "geometry": { "type": "Point", "coordinates": [ -122.621563802522004, 45.537630304036497 ] } },
{ "type": "Feature", "properties": { "FID": 12, "NAME": "Belmont Library", "ADDRESS": "1038 SE Cesar E Chavez Blvd", "CITY": "Portland", "STATE": "OR", "ZIPCODE": "97214" }, "geometry": { "type": "Point", "coordinates": [ -122.622682782072999, 45.5152411100105 ] } },
{ "type": "Feature", "properties": { "FID": 13, "NAME": "Washougal Community Library", "ADDRESS": "1661 C St", "CITY": "Washougal", "STATE": "WA", "ZIPCODE": "98671" }, "geometry": { "type": "Point", "coordinates": [ -122.354025706157998, 45.579814551099602 ] } },
{ "type": "Feature", "properties": { "FID": 14, "NAME": "Vancouver Community Library", "ADDRESS": "1007 E Mill Plain Blvd", "CITY": "Vancouver", "STATE": "WA", "ZIPCODE": "98663" }, "geometry": { "type": "Point", "coordinates": [ -122.661284768097005, 45.630165146464698 ] } },
{ "type": "Feature", "properties": { "FID": 15, "NAME": "Vancouver Mall Community Library", "ADDRESS": "8700 NE Vancouver Mall Dr, Suite 285", "CITY": "Vancouver", "STATE": "WA", "ZIPCODE": "98662" }, "geometry": { "type": "Point", "coordinates": [ -122.587215198243996, 45.658300829456202 ] } },
{ "type": "Feature", "properties": { "FID": 16, "NAME": "Cascade Park Community Library", "ADDRESS": "600 NE 136th Ave", "CITY": "Vancouver", "STATE": "WA", "ZIPCODE": "98684" }, "geometry": { "type": "Point", "coordinates": [ -122.522327298242999, 45.620473467308997 ] } },
{ "type": "Feature", "properties": { "FID": 17, "NAME": "Central Library", "ADDRESS": "801 SW 10th Ave", "CITY": "Portland", "STATE": "OR", "ZIPCODE": "97205" }, "geometry": { "type": "Point", "coordinates": [ -122.682965190458006, 45.519223034447997 ] } },
{ "type": "Feature", "properties": { "FID": 18, "NAME": "Hillsdale Library", "ADDRESS": "1525 SW Sunset Blvd", "CITY": "Portland", "STATE": "OR", "ZIPCODE": "97239" }, "geometry": { "type": "Point", "coordinates": [ -122.694051040505002, 45.479804309337197 ] } },
{ "type": "Feature", "properties": { "FID": 19, "NAME": "Woodstock Library", "ADDRESS": "6008 SE 49th Ave", "CITY": "Portland", "STATE": "OR", "ZIPCODE": "97206" }, "geometry": { "type": "Point", "coordinates": [ -122.612161813512003, 45.478994163139298 ] } },
{ "type": "Feature", "properties": { "FID": 20, "NAME": "Holgate Library", "ADDRESS": "7905 SE Holgate Blvd", "CITY": "Portland", "STATE": "OR", "ZIPCODE": "97206" }, "geometry": { "type": "Point", "coordinates": [ -122.582222647143993, 45.490416325277302 ] } },
{ "type": "Feature", "properties": { "FID": 21, "NAME": "Gresham Library", "ADDRESS": "385 NW Miller Ave", "CITY": "Gresham", "STATE": "OR", "ZIPCODE": "97030" }, "geometry": { "type": "Point", "coordinates": [ -122.432822162975, 45.500213396266801 ] } },
{ "type": "Feature", "properties": { "FID": 22, "NAME": "Garden Home Community Library", "ADDRESS": "7475 SW Oleson Rd", "CITY": "Portland", "STATE": "OR", "ZIPCODE": "97223" }, "geometry": { "type": "Point", "coordinates": [ -122.753808294205996, 45.466177608277903 ] } },
{ "type": "Feature", "properties": { "FID": 23, "NAME": "Tualatin Public Library", "ADDRESS": "18878 SW Martinazzi Ave", "CITY": "Tualatin", "STATE": "OR", "ZIPCODE": "97062" }, "geometry": { "type": "Point", "coordinates": [ -122.758588709498994, 45.384301153989199 ] } },
{ "type": "Feature", "properties": { "FID": 24, "NAME": "Capitol Hill Library", "ADDRESS": "10723 SW Capitol Hwy", "CITY": "Portland", "STATE": "OR", "ZIPCODE": "97219" }, "geometry": { "type": "Point", "coordinates": [ -122.725315569008998, 45.447953447732402 ] } },
{ "type": "Feature", "properties": { "FID": 25, "NAME": "Ledding Library of Milwaukie", "ADDRESS": "10660 SE 21st Ave", "CITY": "Milwaukie", "STATE": "OR", "ZIPCODE": "97222" }, "geometry": { "type": "Point", "coordinates": [ -122.640472319405006, 45.446137850788297 ] } },
{ "type": "Feature", "properties": { "FID": 26, "NAME": "Lake Oswego Public Library", "ADDRESS": "706 4th St", "CITY": "Lake Oswego", "STATE": "OR", "ZIPCODE": "97034" }, "geometry": { "type": "Point", "coordinates": [ -122.667367673854002, 45.424127773595401 ] } },
{ "type": "Feature", "properties": { "FID": 27, "NAME": "Oak Lodge Library", "ADDRESS": "16201 SE Mcloughlin Blvd", "CITY": "Oak Grove", "STATE": "OR", "ZIPCODE": "97267" }, "geometry": { "type": "Point", "coordinates": [ -122.624640288273994, 45.4058010678785 ] } },
{ "type": "Feature", "properties": { "FID": 28, "NAME": "Wilsonville Public Library", "ADDRESS": "8200 SW Wilsonville Rd", "CITY": "Wilsonville", "STATE": "OR", "ZIPCODE": "97070" }, "geometry": { "type": "Point", "coordinates": [ -122.760998299158999, 45.3026493164108 ] } },
{ "type": "Feature", "properties": { "FID": 29, "NAME": "Canby Public Library", "ADDRESS": "292 N Holly St", "CITY": "Canby", "STATE": "OR", "ZIPCODE": "97013" }, "geometry": { "type": "Point", "coordinates": [ -122.694778135649003, 45.263954635861303 ] } },
{ "type": "Feature", "properties": { "FID": 30, "NAME": "Gladstone Public Library", "ADDRESS": "135 E Dartmouth St", "CITY": "Gladstone", "STATE": "OR", "ZIPCODE": "97027" }, "geometry": { "type": "Point", "coordinates": [ -122.593659400722998, 45.380350742144003 ] } },
{ "type": "Feature", "properties": { "FID": 31, "NAME": "Oregon City Public Library", "ADDRESS": "606 John Adams St", "CITY": "Oregon City", "STATE": "OR", "ZIPCODE": "97045" }, "geometry": { "type": "Point", "coordinates": [ -122.604210560366994, 45.355333391235 ] } },
{ "type": "Feature", "properties": { "FID": 32, "NAME": "Estacada Library", "ADDRESS": "825 NW Wade St", "CITY": "Estacada", "STATE": "OR", "ZIPCODE": "97023" }, "geometry": { "type": "Point", "coordinates": [ -122.338721685642, 45.296759030412801 ] } },
{ "type": "Feature", "properties": { "FID": 33, "NAME": "Sandy Public Library", "ADDRESS": "38750 Proctor Blvd The First American Title Buildi", "CITY": "Sandy", "STATE": "OR", "ZIPCODE": "97055" }, "geometry": { "type": "Point", "coordinates": [ -122.264729591196001, 45.397088714732 ] } },
{ "type": "Feature", "properties": { "FID": 34, "NAME": "West Linn Public Library", "ADDRESS": "1595 Burns St", "CITY": "West Linn", "STATE": "OR", "ZIPCODE": "97068" }, "geometry": { "type": "Point", "coordinates": [ -122.614127281698998, 45.367607666600499 ] } },
{ "type": "Feature", "properties": { "FID": 35, "NAME": "Albina Library", "ADDRESS": "216 NE Knott St", "CITY": "Portland", "STATE": "OR", "ZIPCODE": "97212" }, "geometry": { "type": "Point", "coordinates": [ -122.663083607412005, 45.541608640437403 ] } },
{ "type": "Feature", "properties": { "FID": 36, "NAME": "Fairview-Columbia Library", "ADDRESS": "1520 NE Village St", "CITY": "Fairview", "STATE": "OR", "ZIPCODE": "97024" }, "geometry": { "type": "Point", "coordinates": [ -122.439132072099994, 45.532448123340302 ] } },
{ "type": "Feature", "properties": { "FID": 37, "NAME": "Northwest Library", "ADDRESS": "2300 NW Thurman St", "CITY": "Portland", "STATE": "OR", "ZIPCODE": "97210" }, "geometry": { "type": "Point", "coordinates": [ -122.699058627170999, 45.535336851094598 ] } },
{ "type": "Feature", "properties": { "FID": 38, "NAME": "Beaverton City Library", "ADDRESS": "12375 SW 5th St", "CITY": "Beaverton", "STATE": "OR", "ZIPCODE": "97005" }, "geometry": { "type": "Point", "coordinates": [ -122.804023020425007, 45.484104230834603 ] } },
{ "type": "Feature", "properties": { "FID": 39, "NAME": "Molalla Public Library", "ADDRESS": "201 E 5th St", "CITY": "Molalla", "STATE": "OR", "ZIPCODE": "97038" }, "geometry": { "type": "Point", "coordinates": [ -122.577613448858003, 45.144041390661499 ] } },
{ "type": "Feature", "properties": { "FID": 40, "NAME": "Banks Public Library", "ADDRESS": "111 Market St", "CITY": "Banks", "STATE": "OR", "ZIPCODE": "97106" }, "geometry": { "type": "Point", "coordinates": [ -123.113855728475002, 45.619760380828303 ] } },
{ "type": "Feature", "properties": { "FID": 41, "NAME": "Cedar Mill Community Library", "ADDRESS": "12505 NW Cornell Rd", "CITY": "Portland", "STATE": "OR", "ZIPCODE": "97229" }, "geometry": { "type": "Point", "coordinates": [ -122.805720429542006, 45.526027894444397 ] } },
{ "type": "Feature", "properties": { "FID": 42, "NAME": "Tigard Public Library", "ADDRESS": "13500 SW Hall Blvd", "CITY": "Tigard", "STATE": "OR", "ZIPCODE": "97223" }, "geometry": { "type": "Point", "coordinates": [ -122.765450012065003, 45.422356475090801 ] } },
{ "type": "Feature", "properties": { "FID": 43, "NAME": "Tuality Health Resource Center", "ADDRESS": "334 SE 8th Ave", "CITY": "Hillsboro", "STATE": "OR", "ZIPCODE": "97123" }, "geometry": { "type": "Point", "coordinates": [ -122.977025306461002, 45.519569096252397 ] } },
{ "type": "Feature", "properties": { "FID": 44, "NAME": "Oregon College of Art & Craft", "ADDRESS": "8245 SW Barnes Rd", "CITY": "Portland", "STATE": "OR", "ZIPCODE": "97225" }, "geometry": { "type": "Point", "coordinates": [ -122.760690982244, 45.511324969156 ] } },
{ "type": "Feature", "properties": { "FID": 45, "NAME": "Battle Ground Community Library", "ADDRESS": "1207 SE 8th Way", "CITY": "Battle Ground", "STATE": "WA", "ZIPCODE": "98604" }, "geometry": { "type": "Point", "coordinates": [ -122.523673573916994, 45.774474153386798 ] } },
{ "type": "Feature", "properties": { "FID": 46, "NAME": "La Center Community Library", "ADDRESS": "1402 E Lockwood Creek Rd", "CITY": "La Center", "STATE": "WA", "ZIPCODE": "98629" }, "geometry": { "type": "Point", "coordinates": [ -122.655605646360996, 45.862137139640701 ] } },
{ "type": "Feature", "properties": { "FID": 47, "NAME": "Ridgefield Community Library", "ADDRESS": "210 N Main Ave", "CITY": "Ridgefield", "STATE": "WA", "ZIPCODE": "98642" }, "geometry": { "type": "Point", "coordinates": [ -122.746131222570995, 45.8175014114479 ] } },
{ "type": "Feature", "properties": { "FID": 48, "NAME": "Three Creeks Community Library", "ADDRESS": "800-C NE Tenney Rd", "CITY": "Vancouver", "STATE": "WA", "ZIPCODE": "98685" }, "geometry": { "type": "Point", "coordinates": [ -122.663407709577001, 45.719247015405401 ] } },
{ "type": "Feature", "properties": { "FID": 49, "NAME": "SW Washington Medical Center Library", "ADDRESS": "400 NE Mother Joseph Pl", "CITY": "Vancouver", "STATE": "WA", "ZIPCODE": "98664" }, "geometry": { "type": "Point", "coordinates": [ -122.581527186347003, 45.624091054607398 ] } },
{ "type": "Feature", "properties": { "FID": 50, "NAME": "Camas Public Library", "ADDRESS": "625 NE 4th Ave", "CITY": "Camas", "STATE": "WA", "ZIPCODE": "98607" }, "geometry": { "type": "Point", "coordinates": [ -122.402321634516994, 45.586961557977297 ] } },
{ "type": "Feature", "properties": { "FID": 51, "NAME": "Kenton Library", "ADDRESS": "8226 N Denver Ave", "CITY": "Portland", "STATE": "OR", "ZIPCODE": "97217" }, "geometry": { "type": "Point", "coordinates": [ -122.686553002657007, 45.582674320873501 ] } },
{ "type": "Feature", "properties": { "FID": 52, "NAME": "Cedar Mill Community Library at Bethany", "ADDRESS": "15325 NW Central Drive, Suite J-8", "CITY": "Portland", "STATE": "OR", "ZIPCODE": "97229" }, "geometry": { "type": "Point", "coordinates": [ -122.835003204158994, 45.554438585611599 ] } },
{ "type": "Feature", "properties": { "FID": 53, "NAME": "Hillsboro Main Library", "ADDRESS": "2850 NE Brookwood Pkwy", "CITY": "Hillsboro", "STATE": "OR", "ZIPCODE": "97124" }, "geometry": { "type": "Point", "coordinates": [ -122.936156913226, 45.542838017232299 ] } },
{ "type": "Feature", "properties": { "FID": 54, "NAME": "North Plains Public Library", "ADDRESS": "31334 NW Commercial St", "CITY": "North Plains", "STATE": "OR", "ZIPCODE": "97133" }, "geometry": { "type": "Point", "coordinates": [ -122.999282451259006, 45.597414936849503 ] } },
{ "type": "Feature", "properties": { "FID": 55, "NAME": "Troutdale Library", "ADDRESS": "2451 SW Cherry Park Rd", "CITY": "Troutdale", "STATE": "OR", "ZIPCODE": "97060" }, "geometry": { "type": "Point", "coordinates": [ -122.409559528062999, 45.529496837216698 ] } },
{ "type": "Feature", "properties": { "FID": 56, "NAME": "Sunnyside Library", "ADDRESS": "13793 SE Sieben Park Way", "CITY": "Clackamas", "STATE": "OR", "ZIPCODE": "97015" }, "geometry": { "type": "Point", "coordinates": [ -122.512778370437999, 45.422703542643198 ] } },
{ "type": "Feature", "properties": { "FID": 57, "NAME": "Aloha Community Library", "ADDRESS": "17683 SW Farmington Rd Suite E", "CITY": "Aloha", "STATE": "OR", "ZIPCODE": "97007" }, "geometry": { "type": "Point", "coordinates": [ -122.857402447205999, 45.480162901201602 ] } },
{ "type": "Feature", "properties": { "FID": 58, "NAME": "Beaverton City Library at Murray Scholls", "ADDRESS": "11200 SW Murray Scholls Place Suite 102", "CITY": "Beaverton", "STATE": "OR", "ZIPCODE": "97007" }, "geometry": { "type": "Point", "coordinates": [ -122.827525274449002, 45.438647410649899 ] } },
{ "type": "Feature", "properties": { "FID": 59, "NAME": "Cornelius Public Library", "ADDRESS": "1370 N Adair Street", "CITY": "Cornelius", "STATE": "OR", "ZIPCODE": "97113" }, "geometry": { "type": "Point", "coordinates": [ -123.054879398058006, 45.521067554875501 ] } }
]
}
