{
"type": "FeatureCollection",
"name": "pps_elementary_schools",
"crs": { "type": "name", "properties": { "name": "urn:ogc:def:crs:OGC:1.3:CRS84" } },
"features": [
{ "type": "Feature", "properties": { "school": "Lenox Elementary School" }, "geometry": { "type": "Point", "coordinates": [ -122.893037400357002, 45.558109091037998 ] } },
{ "type": "Feature", "properties": { "school": "Cedar Mill Elementary School" }, "geometry": { "type": "Point", "coordinates": [ -122.782722525222994, 45.526514957827999 ] } },
{ "type": "Feature", "properties": { "school": "Montclair Elementary School" }, "geometry": { "type": "Point", "coordinates": [ -122.755904241137998, 45.476441884953999 ] } },
{ "type": "Feature", "properties": { "school": "Raleigh Hills Elementary School" }, "geometry": { "type": "Point", "coordinates": [ -122.758732973060006, 45.481628407225998 ] } },
{ "type": "Feature", "properties": { "school": "Raleigh Park Elementary School" }, "geometry": { "type": "Point", "coordinates": [ -122.757613102665999, 45.493008816216999 ] } },
{ "type": "Feature", "properties": { "school": "Ridgewood Elementary School" }, "geometry": { "type": "Point", "coordinates": [ -122.778649443226996, 45.503406250840001 ] } },
{ "type": "Feature", "properties": { "school": "Rock Creek Elementary School" }, "geometry": { "type": "Point", "coordinates": [ -122.867612800763993, 45.551094411432999 ] } },
{ "type": "Feature", "properties": { "school": "Terra Linda Elementary School" }, "geometry": { "type": "Point", "coordinates": [ -122.824370697982005, 45.534159253771001 ] } },
{ "type": "Feature", "properties": { "school": "West Tualatin View Elementary School" }, "geometry": { "type": "Point", "coordinates": [ -122.766215808918005, 45.515534526559001 ] } },
{ "type": "Feature", "properties": { "school": "William Walker Elementary School" }, "geometry": { "type": "Point", "coordinates": [ -122.798232182476994, 45.500758752342001 ] } },
{ "type": "Feature", "properties": { "school": "Findley Elementary" }, "geometry": { "type": "Point", "coordinates": [ -122.810681180109, 45.549616747042997 ] } },
{ "type": "Feature", "properties": { "school": "Jacob Wismer Elementary School" }, "geometry": { "type": "Point", "coordinates": [ -122.824232927861999, 45.559269617555998 ] } },
{ "type": "Feature", "properties": { "school": "Bonny Slope Elementary School" }, "geometry": { "type": "Point", "coordinates": [ -122.797767354879994, 45.538611063117997 ] } },
{ "type": "Feature", "properties": { "school": "Lynch Meadows Elementary School" }, "geometry": { "type": "Point", "coordinates": [ -122.479972634939003, 45.501159502998 ] } },
{ "type": "Feature", "properties": { "school": "Lynch View Elementary School" }, "geometry": { "type": "Point", "coordinates": [ -122.488506090024998, 45.512167103305003 ] } },
{ "type": "Feature", "properties": { "school": "Lynch Wood Elementary School" }, "geometry": { "type": "Point", "coordinates": [ -122.484745701704995, 45.496501203397003 ] } },
{ "type": "Feature", "properties": { "school": "Cherry Park Elementary School" }, "geometry": { "type": "Point", "coordinates": [ -122.556367894556999, 45.509535621485 ] } },
{ "type": "Feature", "properties": { "school": "Gilbert Heights Elementary School" }, "geometry": { "type": "Point", "coordinates": [ -122.531788509077998, 45.489693597737002 ] } },
{ "type": "Feature", "properties": { "school": "Gilbert Park Elementary School" }, "geometry": { "type": "Point", "coordinates": [ -122.528187795273993, 45.479980153645002 ] } },
{ "type": "Feature", "properties": { "school": "Lincoln Park Elementary School" }, "geometry": { "type": "Point", "coordinates": [ -122.527938643254004, 45.507987224861999 ] } },
{ "type": "Feature", "properties": { "school": "Menlo Park Elementary School" }, "geometry": { "type": "Point", "coordinates": [ -122.531181444051995, 45.526302798857003 ] } },
{ "type": "Feature", "properties": { "school": "Mill Park Elementary School" }, "geometry": { "type": "Point", "coordinates": [ -122.542737490321997, 45.509616786640002 ] } },
{ "type": "Feature", "properties": { "school": "Ventura Park Elementary School" }, "geometry": { "type": "Point", "coordinates": [ -122.543000814985007, 45.521438572778997 ] } },
{ "type": "Feature", "properties": { "school": "West Powellhurst Elementary School" }, "geometry": { "type": "Point", "coordinates": [ -122.543552779492003, 45.500450657729999 ] } },
{ "type": "Feature", "properties": { "school": "Earl Boyles Elementary" }, "geometry": { "type": "Point", "coordinates": [ -122.551181760800006, 45.494870095220001 ] } },
{ "type": "Feature", "properties": { "school": "Mount Scott Elementary School" }, "geometry": { "type": "Point", "coordinates": [ -122.565786001519996, 45.441753824004003 ] } },
{ "type": "Feature", "properties": { "school": "Prescott Elementary School" }, "geometry": { "type": "Point", "coordinates": [ -122.555655666099995, 45.555327224947 ] } },
{ "type": "Feature", "properties": { "school": "Sacramento Elementary School" }, "geometry": { "type": "Point", "coordinates": [ -122.545173283335998, 45.539427399753002 ] } },
{ "type": "Feature", "properties": { "school": "Shaver Elementary School" }, "geometry": { "type": "Point", "coordinates": [ -122.527561064631001, 45.549209206501999 ] } },
{ "type": "Feature", "properties": { "school": "Rieke Elementary School" }, "geometry": { "type": "Point", "coordinates": [ -122.696156521758994, 45.476097988823 ] } },
{ "type": "Feature", "properties": { "school": "Abernethy Elementary School" }, "geometry": { "type": "Point", "coordinates": [ -122.650771970536994, 45.505990440608997 ] } },
{ "type": "Feature", "properties": { "school": "Ainsworth Elementary School" }, "geometry": { "type": "Point", "coordinates": [ -122.699523311479993, 45.509221210838 ] } },
{ "type": "Feature", "properties": { "school": "Alameda Elementary School" }, "geometry": { "type": "Point", "coordinates": [ -122.637703521220999, 45.548181233786003 ] } },
{ "type": "Feature", "properties": { "school": "Arleta Elementary School" }, "geometry": { "type": "Point", "coordinates": [ -122.595726679284994, 45.486059652698003 ] } },
{ "type": "Feature", "properties": { "school": "Astor Elementary School" }, "geometry": { "type": "Point", "coordinates": [ -122.729950687864999, 45.578320275202998 ] } },
{ "type": "Feature", "properties": { "school": "Atkinson Elementary School" }, "geometry": { "type": "Point", "coordinates": [ -122.603840785009993, 45.505287232800001 ] } },
{ "type": "Feature", "properties": { "school": "Rosa Parks Elementary School" }, "geometry": { "type": "Point", "coordinates": [ -122.713382627513994, 45.586939432908999 ] } },
{ "type": "Feature", "properties": { "school": "Beach Elementary School" }, "geometry": { "type": "Point", "coordinates": [ -122.685022235453999, 45.558343433673002 ] } },
{ "type": "Feature", "properties": { "school": "Boise-Eliot Elementary School" }, "geometry": { "type": "Point", "coordinates": [ -122.672490474739007, 45.548181237359003 ] } },
{ "type": "Feature", "properties": { "school": "Bridger Elementary School" }, "geometry": { "type": "Point", "coordinates": [ -122.581960876587999, 45.510765455990999 ] } },
{ "type": "Feature", "properties": { "school": "Bridlemile Elementary School" }, "geometry": { "type": "Point", "coordinates": [ -122.724128939647002, 45.492301312191003 ] } },
{ "type": "Feature", "properties": { "school": "Buckman Elementary School" }, "geometry": { "type": "Point", "coordinates": [ -122.649483880966997, 45.520573266810999 ] } },
{ "type": "Feature", "properties": { "school": "Capitol Hill Elementary School" }, "geometry": { "type": "Point", "coordinates": [ -122.695256698164997, 45.464120197002998 ] } },
{ "type": "Feature", "properties": { "school": "Chapman Elementary School" }, "geometry": { "type": "Point", "coordinates": [ -122.704815335719005, 45.532878107523999 ] } },
{ "type": "Feature", "properties": { "school": "Chief Joseph Elementary School" }, "geometry": { "type": "Point", "coordinates": [ -122.690937077493999, 45.572685829238999 ] } },
{ "type": "Feature", "properties": { "school": "Creston Elementary School" }, "geometry": { "type": "Point", "coordinates": [ -122.613993489456007, 45.495196961468999 ] } },
{ "type": "Feature", "properties": { "school": "Duniway Elementary School" }, "geometry": { "type": "Point", "coordinates": [ -122.629113151805996, 45.468430493782002 ] } },
{ "type": "Feature", "properties": { "school": "Faubion Elementary School" }, "geometry": { "type": "Point", "coordinates": [ -122.634269425651993, 45.570030823567002 ] } },
{ "type": "Feature", "properties": { "school": "Glencoe Elementary School" }, "geometry": { "type": "Point", "coordinates": [ -122.610509799183006, 45.516916088026001 ] } },
{ "type": "Feature", "properties": { "school": "Grout Elementary School" }, "geometry": { "type": "Point", "coordinates": [ -122.633434966234006, 45.490650828081002 ] } },
{ "type": "Feature", "properties": { "school": "Hayhurst Elementary School" }, "geometry": { "type": "Point", "coordinates": [ -122.729258538251003, 45.479973723139999 ] } },
{ "type": "Feature", "properties": { "school": "Humboldt Elementary School" }, "geometry": { "type": "Point", "coordinates": [ -122.669053117394, 45.558399740391003 ] } },
{ "type": "Feature", "properties": { "school": "Irvington Elementary School" }, "geometry": { "type": "Point", "coordinates": [ -122.652220970486994, 45.540468235722997 ] } },
{ "type": "Feature", "properties": { "school": "James John Elementary School" }, "geometry": { "type": "Point", "coordinates": [ -122.751956573083007, 45.589486370243002 ] } },
{ "type": "Feature", "properties": { "school": "Kelly Elementary School" }, "geometry": { "type": "Point", "coordinates": [ -122.570388177452998, 45.473319135109001 ] } },
{ "type": "Feature", "properties": { "school": "King Elementary School" }, "geometry": { "type": "Point", "coordinates": [ -122.659420227130994, 45.558591950752003 ] } },
{ "type": "Feature", "properties": { "school": "Laurelhurst Elementary School" }, "geometry": { "type": "Point", "coordinates": [ -122.620694057688993, 45.528984649777001 ] } },
{ "type": "Feature", "properties": { "school": "Lee Elementary School" }, "geometry": { "type": "Point", "coordinates": [ -122.568391834080998, 45.537610957852998 ] } },
{ "type": "Feature", "properties": { "school": "Lent Elementary School" }, "geometry": { "type": "Point", "coordinates": [ -122.563513539707998, 45.485707380488002 ] } },
{ "type": "Feature", "properties": { "school": "Lewis Elementary School" }, "geometry": { "type": "Point", "coordinates": [ -122.616737271442005, 45.473325827377003 ] } },
{ "type": "Feature", "properties": { "school": "Llewellyn Elementary School" }, "geometry": { "type": "Point", "coordinates": [ -122.651828379066004, 45.477116985645999 ] } },
{ "type": "Feature", "properties": { "school": "Maplewood Elementary School" }, "geometry": { "type": "Point", "coordinates": [ -122.730503207653001, 45.471087546623998 ] } },
{ "type": "Feature", "properties": { "school": "Markham Elementary School" }, "geometry": { "type": "Point", "coordinates": [ -122.724372846212006, 45.449108967469002 ] } },
{ "type": "Feature", "properties": { "school": "Marysville Elementary School" }, "geometry": { "type": "Point", "coordinates": [ -122.583987198675004, 45.486616113977 ] } },
{ "type": "Feature", "properties": { "school": "Peninsula Elementary School" }, "geometry": { "type": "Point", "coordinates": [ -122.700009065092999, 45.582163139087001 ] } },
{ "type": "Feature", "properties": { "school": "Richmond Elementary School" }, "geometry": { "type": "Point", "coordinates": [ -122.620275936145006, 45.506809552592998 ] } },
{ "type": "Feature", "properties": { "school": "Rigler Elementary School" }, "geometry": { "type": "Point", "coordinates": [ -122.608198953311003, 45.555552898098 ] } },
{ "type": "Feature", "properties": { "school": "Sabin Elementary School" }, "geometry": { "type": "Point", "coordinates": [ -122.647322919556998, 45.552052166159001 ] } },
{ "type": "Feature", "properties": { "school": "Scott Elementary School" }, "geometry": { "type": "Point", "coordinates": [ -122.594225350036993, 45.555390228903001 ] } },
{ "type": "Feature", "properties": { "school": "Sitton Elementary School" }, "geometry": { "type": "Point", "coordinates": [ -122.757604836108996, 45.599974476374001 ] } },
{ "type": "Feature", "properties": { "school": "Skyline Elementary School" }, "geometry": { "type": "Point", "coordinates": [ -122.853783718726007, 45.606156879524001 ] } },
{ "type": "Feature", "properties": { "school": "Stephenson Elementary School" }, "geometry": { "type": "Point", "coordinates": [ -122.704407553268993, 45.440223838275998 ] } },
{ "type": "Feature", "properties": { "school": "Vernon Elementary School" }, "geometry": { "type": "Point", "coordinates": [ -122.644470349724003, 45.562641926049999 ] } },
{ "type": "Feature", "properties": { "school": "Vestal Elementary School" }, "geometry": { "type": "Point", "coordinates": [ -122.579131312761007, 45.524847205992998 ] } },
{ "type": "Feature", "properties": { "school": "Whitman Elementary School" }, "geometry": { "type": "Point", "coordinates": [ -122.587927386871996, 45.468579810483 ] } },
{ "type": "Feature", "properties": { "school": "Woodlawn Elementary School" }, "geometry": { "type": "Point", "coordinates": [ -122.653580603736003, 45.574534346629001 ] } },
{ "type": "Feature", "properties": { "school": "Woodmere Elementary School" }, "geometry": { "type": "Point", "coordinates": [ -122.582326230869, 45.475821232309997 ] } },
{ "type": "Feature", "properties": { "school": "Woodstock Elementary School" }, "geometry": { "type": "Point", "coordinates": [ -122.611459621250006, 45.481959493025002 ] } },
{ "type": "Feature", "properties": { "school": "Forest Park Elementary School" }, "geometry": { "type": "Point", "coordinates": [ -122.777559599803993, 45.541891513815997 ] } },
{ "type": "Feature", "properties": { "school": "Alder Elementary School" }, "geometry": { "type": "Point", "coordinates": [ -122.486433361785004, 45.517633674975997 ] } },
{ "type": "Feature", "properties": { "school": "Glenfair Elementary School" }, "geometry": { "type": "Point", "coordinates": [ -122.505761409935999, 45.526392221514001 ] } },
{ "type": "Feature", "properties": { "school": "Hartley Elementary School" }, "geometry": { "type": "Point", "coordinates": [ -122.472091514179994, 45.527273368884003 ] } },
{ "type": "Feature", "properties": { "school": "Margaret Scott Elementary School" }, "geometry": { "type": "Point", "coordinates": [ -122.512898360072995, 45.540008930500001 ] } },
{ "type": "Feature", "properties": { "school": "Davis Elementary School" }, "geometry": { "type": "Point", "coordinates": [ -122.461651913506003, 45.522879971691999 ] } },
{ "type": "Feature", "properties": { "school": "Wilkes Elementary School" }, "geometry": { "type": "Point", "coordinates": [ -122.487301289743002, 45.542093351680997 ] } },
{ "type": "Feature", "properties": { "school": "Sauvie Island Elementary School" }, "geometry": { "type": "Point", "coordinates": [ -122.818272969022999, 45.655786642381997 ] } }
]
}
